$GPGGA,160939.00,4326.7366069,N,00133.0727655,W,1,19,1.6,50.6933,M,50.7943,M,,*4E
$GPGSA,A,3,10,23,27,32,,,,,,,,,1.9,1.6,1.0*38
$GPGSA,A,3,65,71,72,87,,,,,,,,,1.9,1.6,1.0*33
$GPGSA,A,3,07,19,29,33,,,,,,,,,1.9,1.6,1.0*38
$GPGSA,A,3,05,13,27,28,32,33,41,,,,,,1.9,1.6,1.0*30
$GPGST,160939.00,10.055,6.765,1.444,81.450,1.746,6.694,3.922*5E
$GPGGA,160940.00,4326.7365248,N,00133.0728721,W,1,19,1.6,50.8352,M,50.7944,M,,*4B
$GPGSA,A,3,10,23,27,32,,,,,,,,,1.9,1.6,1.0*38
$GPGSA,A,3,65,71,72,87,,,,,,,,,1.9,1.6,1.0*33
$GPGSA,A,3,07,19,29,33,,,,,,,,,1.9,1.6,1.0*38
$GPGSA,A,3,05,13,27,28,32,33,41,,,,,,1.9,1.6,1.0*30
$GPGST,160940.00,4.861,6.531,1.438,81.674,1.708,6.465,3.764*6C
$GPGGA,160941.00,4326.7361965,N,00133.0729778,W,1,19,1.6,50.8861,M,50.7944,M,,*4C
$GPGSA,A,3,10,23,27,32,,,,,,,,,1.9,1.6,1.0*38
$GPGSA,A,3,65,71,72,87,,,,,,,,,1.9,1.6,1.0*33
$GPGSA,A,3,07,19,29,33,,,,,,,,,1.9,1.6,1.0*38
$GPGSA,A,3,05,13,27,28,32,33,41,,,,,,1.9,1.6,1.0*30
$GPGST,160941.00,4.425,6.476,1.431,81.573,1.705,6.410,3.726*67
$GPGGA,160942.00,4326.7357883,N,00133.0730496,W,1,19,1.6,50.9358,M,50.7944,M,,*48
$GPGSA,A,3,10,23,27,32,,,,,,,,,1.9,1.6,1.0*38
$GPGSA,A,3,65,71,72,87,,,,,,,,,1.9,1.6,1.0*33
$GPGSA,A,3,07,19,29,33,,,,,,,,,1.9,1.6,1.0*38
$GPGSA,A,3,05,13,27,28,32,33,41,,,,,,1.9,1.6,1.0*30
$GPGST,160942.00,4.350,6.507,1.428,81.323,1.719,6.436,3.738*6B
$GPGSV,3,1,12,08,78,317,,23,14,040,43,32,16,113,42,16,20,174,*79
$GPGSV,3,2,12,01,29,257,,10,52,062,48,02,51,275,,27,60,113,49*74
$GPGSV,3,3,12,14,03,327,,07,03,270,,30,03,301,,03,01,206,*7F
$GLGSV,3,1,09,88,58,328,,87,34,062,42,71,14,025,43,81,15,282,*66
$GLGSV,3,2,09,65,26,141,38,79,28,317,,72,39,073,45,78,39,253,*6F
$GLGSV,3,3,09,77,08,199,*55
$GAGSV,4,1,13,12,66,278,,31,40,189,,29,15,087,41,25,18,320,*6D
$GAGSV,4,2,13,11,16,253,,18,22,116,,33,49,051,41,16,38,304,*67
$GAGSV,4,3,13,10,43,261,,24,55,272,,26,03,065,22,07,07,037,40*6B
$GAGSV,4,4,13,19,07,130,35*51
$GBGSV,3,1,11,30,70,323,,13,15,037,43,05,14,110,40,29,20,286,*6B
$GBGSV,3,2,11,41,37,069,46,32,37,142,49,27,46,081,50,08,03,031,23*6A
$GBGSV,3,3,11,28,05,094,43,33,06,030,37,20,01,184,*51
$GPGGA,160943.00,4326.7354136,N,00133.0729828,W,1,19,1.6,50.9344,M,50.7944,M,,*41
$GPGSA,A,3,10,23,27,32,,,,,,,,,1.9,1.6,1.0*38
$GPGSA,A,3,65,71,72,87,,,,,,,,,1.9,1.6,1.0*33
$GPGSA,A,3,07,19,29,33,,,,,,,,,1.9,1.6,1.0*38
$GPGSA,A,3,05,13,27,28,32,33,41,,,,,,1.9,1.6,1.0*30
$GPGST,160943.00,4.333,6.454,1.419,81.258,1.712,6.382,3.698*6F
$GPGGA,160944.00,4326.7349295,N,00133.0727253,W,1,19,1.6,50.9199,M,50.7944,M,,*4A
$GPGSA,A,3,10,23,27,32,,,,,,,,,1.9,1.6,1.0*38
$GPGSA,A,3,65,71,72,87,,,,,,,,,1.9,1.6,1.0*33
$GPGSA,A,3,07,19,29,33,,,,,,,,,1.9,1.6,1.0*38
$GPGSA,A,3,05,13,27,28,32,33,41,,,,,,1.9,1.6,1.0*30
$GPGST,160944.00,4.694,6.430,1.437,81.534,1.708,6.363,3.688*66
$GPGGA,160945.00,4326.7343324,N,00133.0724811,W,1,19,1.6,50.9992,M,50.7944,M,,*46
$GPGSA,A,3,10,23,27,32,,,,,,,,,1.9,1.6,1.0*38
$GPGSA,A,3,65,71,72,87,,,,,,,,,1.9,1.6,1.0*33
$GPGSA,A,3,07,19,29,33,,,,,,,,,1.9,1.6,1.0*38
$GPGSA,A,3,05,13,27,28,32,33,41,,,,,,1.9,1.6,1.0*30
$GPGST,160945.00,4.812,6.410,1.393,81.115,1.695,6.337,3.668*61
$GPGGA,160946.00,4326.7338313,N,00133.0722359,W,1,19,1.6,50.8657,M,50.7944,M,,*4B
$GPGSA,A,3,10,23,27,32,,,,,,,,,1.9,1.6,1.0*38
$GPGSA,A,3,65,71,72,87,,,,,,,,,1.9,1.6,1.0*33
$GPGSA,A,3,07,19,29,33,,,,,,,,,1.9,1.6,1.0*38
$GPGSA,A,3,05,13,27,28,32,33,41,,,,,,1.9,1.6,1.0*30
$GPGST,160946.00,4.716,6.363,1.400,81.082,1.699,6.290,3.660*60
$GPGGA,160947.00,4326.7332635,N,00133.0719356,W,1,19,1.6,50.7684,M,50.7944,M,,*47
$GPGSA,A,3,10,23,27,32,,,,,,,,,1.9,1.6,1.0*38
$GPGSA,A,3,65,71,72,87,,,,,,,,,1.9,1.6,1.0*33
$GPGSA,A,3,07,19,29,33,,,,,,,,,1.9,1.6,1.0*38
$GPGSA,A,3,05,13,27,28,32,33,41,,,,,,1.9,1.6,1.0*30
$GPGST,160947.00,4.395,6.350,1.379,80.948,1.689,6.274,3.639*6E
$GPGSV,3,1,12,08,78,317,,23,13,040,44,32,16,113,45,16,20,174,*7E
$GPGSV,3,2,12,01,29,257,,10,52,062,48,02,51,275,,27,60,113,48*75
$GPGSV,3,3,12,14,03,327,,07,03,270,,30,03,301,,03,01,206,*7F
$GLGSV,3,1,09,88,58,328,,87,34,062,40,71,14,024,43,81,15,282,*65
$GLGSV,3,2,09,65,26,141,40,79,28,317,,72,39,073,44,78,39,253,*61
$GLGSV,3,3,09,77,08,199,*55
$GAGSV,4,1,13,12,66,278,,31,40,189,,29,15,087,40,25,18,320,*6C
$GAGSV,4,2,13,11,16,253,,18,21,116,,33,49,051,47,16,38,304,*62
$GAGSV,4,3,13,10,43,261,,24,55,272,,26,03,065,24,07,07,037,42*6F
$GAGSV,4,4,13,19,07,130,36*52
$GBGSV,3,1,11,30,71,323,,13,15,037,42,05,14,110,39,29,20,286,*65
$GBGSV,3,2,11,41,37,069,49,32,37,142,47,27,46,081,50,08,03,031,23*6B
$GBGSV,3,3,11,28,05,094,44,33,06,030,40,20,01,184,*56
$GPGGA,160948.00,4326.7327345,N,00133.0717478,W,1,19,1.6,50.7653,M,50.7944,M,,*41
$GPGSA,A,3,10,23,27,32,,,,,,,,,1.9,1.6,1.0*38
$GPGSA,A,3,65,71,72,87,,,,,,,,,1.9,1.6,1.0*33
$GPGSA,A,3,07,19,29,33,,,,,,,,,1.9,1.6,1.0*38
$GPGSA,A,3,05,13,27,28,32,33,41,,,,,,1.9,1.6,1.0*30
$GPGST,160948.00,4.355,6.370,1.381,80.878,1.696,6.293,3.650*62
$GPGGA,160949.00,4326.7321880,N,00133.0714408,W,1,19,1.6,50.7437,M,50.7944,M,,*40
$GPGSA,A,3,10,23,27,32,,,,,,,,,1.9,1.6,1.0*38
$GPGSA,A,3,65,71,72,87,,,,,,,,,1.9,1.6,1.0*33
$GPGSA,A,3,07,19,29,33,,,,,,,,,1.9,1.6,1.0*38
$GPGSA,A,3,05,13,27,28,32,33,41,,,,,,1.9,1.6,1.0*30
$GPGST,160949.00,4.384,6.368,1.394,81.004,1.699,6.294,3.641*68
$GPGGA,160950.00,4326.7316879,N,00133.0711017,W,1,19,1.6,50.7610,M,50.7944,M,,*42
$GPGSA,A,3,10,23,27,32,,,,,,,,,1.9,1.6,1.0*38
$GPGSA,A,3,65,71,72,87,,,,,,,,,1.9,1.6,1.0*33
$GPGSA,A,3,07,19,29,33,,,,,,,,,1.9,1.6,1.0*38
$GPGSA,A,3,05,13,27,28,32,33,41,,,,,,1.9,1.6,1.0*30
$GPGST,160950.00,4.570,6.405,1.416,81.141,1.712,6.332,3.646*64
$GPGGA,160951.00,4326.7310823,N,00133.0708570,W,1,19,1.6,50.7583,M,50.7944,M,,*4F
$GPGSA,A,3,10,23,27,32,,,,,,,,,1.9,1.6,1.0*38
$GPGSA,A,3,65,71,72,87,,,,,,,,,1.9,1.6,1.0*33
$GPGSA,A,3,07,19,29,33,,,,,,,,,1.9,1.6,1.0*38
$GPGSA,A,3,05,13,27,28,32,33,41,,,,,,1.9,1.6,1.0*30
$GPGST,160951.00,4.537,6.384,1.407,81.067,1.707,6.311,3.674*69
$GPGGA,160952.00,4326.7304971,N,00133.0706638,W,1,19,1.6,50.7997,M,50.7944,M,,*47
$GPGSA,A,3,10,23,27,32,,,,,,,,,1.9,1.6,1.0*38
$GPGSA,A,3,65,71,72,87,,,,,,,,,1.9,1.6,1.0*33
$GPGSA,A,3,07,19,29,33,,,,,,,,,1.9,1.6,1.0*38
$GPGSA,A,3,05,13,27,28,32,33,41,,,,,,1.9,1.6,1.0*30
$GPGST,160952.00,4.653,6.374,1.399,80.985,1.705,6.299,3.663*65
$GPGSV,3,1,12,08,78,317,,23,13,040,42,32,16,113,43,16,20,174,*7E
$GPGSV,3,2,12,01,29,257,,10,52,062,50,02,51,275,,27,60,113,48*7C
$GPGSV,3,3,12,14,03,327,,07,03,270,,30,03,301,,03,01,206,*7F
$GLGSV,3,1,09,88,58,328,,87,34,062,41,71,14,024,44,81,15,282,*63
$GLGSV,3,2,09,65,26,141,41,79,28,317,,72,39,073,43,78,39,253,*67
$GLGSV,3,3,09,77,08,199,*55
$GAGSV,4,1,13,12,66,278,,31,40,189,,29,15,087,41,25,18,319,*67
$GAGSV,4,2,13,11,16,253,,18,21,116,,33,49,051,46,16,38,304,*63
$GAGSV,4,3,13,10,43,261,,24,55,272,,26,03,065,33,07,07,037,41*6A
$GAGSV,4,4,13,19,07,130,37*53
$GBGSV,3,1,11,30,71,323,,13,15,037,42,05,14,110,40,29,20,286,*6B
$GBGSV,3,2,11,41,37,069,47,32,37,142,49,27,46,082,49,08,03,031,25*66
$GBGSV,3,3,11,28,05,094,44,33,06,029,41,20,01,184,*5F
$GPGGA,160953.00,4326.7298601,N,00133.0703731,W,1,19,1.6,50.7294,M,50.7944,M,,*4F
$GPGSA,A,3,10,23,27,32,,,,,,,,,1.9,1.6,1.0*38
$GPGSA,A,3,65,71,72,87,,,,,,,,,1.9,1.6,1.0*33
$GPGSA,A,3,07,19,29,33,,,,,,,,,1.9,1.6,1.0*38
$GPGSA,A,3,05,13,27,28,32,33,41,,,,,,1.9,1.6,1.0*30
$GPGST,160953.00,4.352,6.365,1.404,81.127,1.700,6.293,3.669*67
$GPGGA,160954.00,4326.7292677,N,00133.0701138,W,1,19,1.6,50.6661,M,50.7944,M,,*41
$GPGSA,A,3,10,23,27,32,,,,,,,,,1.9,1.6,1.0*38
$GPGSA,A,3,65,71,72,87,,,,,,,,,1.9,1.6,1.0*33
$GPGSA,A,3,07,19,29,33,,,,,,,,,1.9,1.6,1.0*38
$GPGSA,A,3,05,13,27,28,32,33,41,,,,,,1.9,1.6,1.0*30
$GPGST,160954.00,4.079,6.394,1.418,81.128,1.713,6.321,3.697*6D
$GPGGA,160955.00,4326.7286912,N,00133.0700017,W,1,19,1.6,50.4660,M,50.7944,M,,*47
$GPGSA,A,3,10,23,27,32,,,,,,,,,1.9,1.6,1.0*38
$GPGSA,A,3,65,71,72,87,,,,,,,,,1.9,1.6,1.0*33
$GPGSA,A,3,07,19,29,33,,,,,,,,,1.9,1.6,1.0*38
$GPGSA,A,3,05,13,27,28,32,33,41,,,,,,1.9,1.6,1.0*30
$GPGST,160955.00,3.957,6.360,1.412,81.253,1.698,6.290,3.691*6F
$GPGGA,160956.00,4326.7280578,N,00133.0697708,W,1,19,1.6,50.4193,M,50.7944,M,,*4F
$GPGSA,A,3,10,23,27,32,,,,,,,,,1.9,1.6,1.0*38
$GPGSA,A,3,65,71,72,87,,,,,,,,,1.9,1.6,1.0*33
$GPGSA,A,3,07,19,29,33,,,,,,,,,1.9,1.6,1.0*38
$GPGSA,A,3,05,13,27,28,32,33,41,,,,,,1.9,1.6,1.0*30
$GPGST,160956.00,3.905,6.371,1.430,81.330,1.709,6.302,3.734*62
$GPGGA,160957.00,4326.7274475,N,00133.0695246,W,1,19,1.6,50.2731,M,50.7944,M,,*4C
$GPGSA,A,3,10,23,27,32,,,,,,,,,1.9,1.6,1.0*38
$GPGSA,A,3,65,71,72,87,,,,,,,,,1.9,1.6,1.0*33
$GPGSA,A,3,07,19,29,33,,,,,,,,,1.9,1.6,1.0*38
$GPGSA,A,3,05,13,27,28,32,33,41,,,,,,1.9,1.6,1.0*30
$GPGST,160957.00,5.515,6.773,1.878,85.134,1.958,6.751,4.622*65
$GPGSV,3,1,12,08,78,317,32,23,13,040,35,32,16,113,44,16,20,174,*78
$GPGSV,3,2,12,01,29,257,,10,52,062,49,02,51,275,,27,60,113,50*7D
$GPGSV,3,3,12,14,03,327,,07,03,270,,30,03,301,,03,01,206,*7F
$GLGSV,3,1,09,88,58,328,,87,34,062,44,71,14,024,39,81,15,282,*6C
$GLGSV,3,2,09,65,26,141,37,79,28,317,,72,39,073,42,78,39,253,*67
$GLGSV,3,3,09,77,08,199,*55
$GAGSV,4,1,13,12,66,278,,31,40,189,,29,15,087,41,25,18,319,*67
$GAGSV,4,2,13,11,16,253,,18,21,116,,33,49,051,45,16,38,304,*60
$GAGSV,4,3,13,10,43,261,,24,55,272,,26,03,065,36,07,07,036,36*6E
$GAGSV,4,4,13,19,07,130,34*50
$GBGSV,3,1,11,30,71,323,30,13,15,037,39,05,14,110,40,29,20,286,*64
$GBGSV,3,2,11,41,37,069,47,32,37,142,48,27,46,082,50,08,03,031,25*6F
$GBGSV,3,3,11,28,05,094,42,33,06,029,41,20,01,184,*59
$GPGGA,160958.00,4326.7269450,N,00133.0692542,W,1,19,1.6,50.1742,M,50.7944,M,,*4B
$GPGSA,A,3,10,23,27,32,,,,,,,,,1.9,1.6,1.0*38
$GPGSA,A,3,65,71,72,87,,,,,,,,,1.9,1.6,1.0*33
$GPGSA,A,3,07,19,29,33,,,,,,,,,1.9,1.6,1.0*38
$GPGSA,A,3,05,13,27,28,32,33,41,,,,,,1.9,1.6,1.0*30
$GPGST,160958.00,3.667,6.544,1.773,83.898,1.895,6.510,4.323*62
$GPGGA,160959.00,4326.7263905,N,00133.0689081,W,1,19,1.6,50.0164,M,50.7944,M,,*4E
$GPGSA,A,3,10,23,27,32,,,,,,,,,1.9,1.6,1.0*38
$GPGSA,A,3,65,71,72,87,,,,,,,,,1.9,1.6,1.0*33
$GPGSA,A,3,07,19,29,33,,,,,,,,,1.9,1.6,1.0*38
$GPGSA,A,3,05,13,27,28,32,33,41,,,,,,1.9,1.6,1.0*30
$GPGST,160959.00,3.672,6.506,1.743,83.444,1.884,6.467,4.252*69
$GPGGA,161000.00,4326.7258186,N,00133.0685675,W,1,19,1.6,50.0254,M,50.7944,M,,*40
$GPGSA,A,3,10,23,27,32,,,,,,,,,1.9,1.6,1.0*38
$GPGSA,A,3,65,71,72,87,,,,,,,,,1.9,1.6,1.0*33
$GPGSA,A,3,07,19,29,33,,,,,,,,,1.9,1.6,1.0*38
$GPGSA,A,3,05,13,27,28,32,33,41,,,,,,1.9,1.6,1.0*30
$GPGST,161000.00,3.446,6.503,1.750,83.456,1.890,6.464,4.257*6F
$GPGGA,161001.00,4326.7252500,N,00133.0682015,W,1,18,1.7,50.1078,M,50.7944,M,,*4B
$GPGSA,A,3,10,23,27,32,,,,,,,,,2.0,1.7,1.0*33
$GPGSA,A,3,65,71,72,87,,,,,,,,,2.0,1.7,1.0*38
$GPGSA,A,3,07,19,29,33,,,,,,,,,2.0,1.7,1.0*33
$GPGSA,A,3,13,27,28,32,33,41,,,,,,,2.0,1.7,1.0*3E
$GPGST,161001.00,2.879,6.549,1.761,83.864,1.886,6.514,4.256*6E
$GPGGA,161002.00,4326.7247096,N,00133.0678735,W,1,17,1.8,50.0263,M,50.7944,M,,*4F
$GPGSA,A,3,10,23,27,32,,,,,,,,,2.1,1.8,1.0*3D
$GPGSA,A,3,65,71,72,87,,,,,,,,,2.1,1.8,1.0*36
$GPGSA,A,3,07,19,29,33,,,,,,,,,2.1,1.8,1.0*3D
$GPGSA,A,3,13,27,32,33,41,,,,,,,,2.1,1.8,1.0*3A
$GPGST,161002.00,2.895,6.578,1.767,83.495,1.908,6.538,4.273*67
$GPGSV,3,1,12,08,78,317,37,23,13,040,42,32,16,113,43,16,20,174,*7A
$GPGSV,3,2,12,01,29,257,,10,52,062,49,02,51,275,,27,60,114,47*7C
$GPGSV,3,3,12,14,03,327,,07,03,270,,30,03,300,,03,01,206,*7E
$GLGSV,3,1,09,88,58,328,,87,34,062,41,71,14,024,41,81,15,282,*66
$GLGSV,3,2,09,65,26,141,41,79,28,317,,72,39,073,44,78,39,253,*60
$GLGSV,3,3,09,77,08,199,*55
$GAGSV,4,1,13,12,66,279,,31,40,189,,29,15,087,41,25,18,319,*66
$GAGSV,4,2,13,11,16,253,,18,21,116,,33,49,051,47,16,38,304,*62
$GAGSV,4,3,13,10,43,261,,24,55,272,,26,03,065,36,07,07,036,35*6D
$GAGSV,4,4,13,19,07,130,34*50
$GBGSV,3,1,11,30,71,323,36,13,15,037,40,05,14,110,39,29,20,286,*62
$GBGSV,3,2,11,41,37,069,49,32,37,142,46,27,46,082,51,08,03,031,20*6B
$GBGSV,3,3,11,28,05,094,36,33,06,029,39,20,01,184,*55
$GPGGA,161003.00,4326.7241514,N,00133.0676393,W,1,19,1.6,49.9505,M,50.7945,M,,*46
$GPGSA,A,3,10,23,27,32,,,,,,,,,1.9,1.6,1.0*38
$GPGSA,A,3,65,71,72,87,,,,,,,,,1.9,1.6,1.0*33
$GPGSA,A,3,07,19,29,33,,,,,,,,,1.9,1.6,1.0*38
$GPGSA,A,3,05,13,27,28,32,33,41,,,,,,1.9,1.6,1.0*30
$GPGST,161003.00,3.226,6.536,1.750,83.367,1.895,6.496,4.244*65
$GPGGA,161004.00,4326.7235562,N,00133.0672721,W,1,19,1.6,49.9720,M,50.7945,M,,*4F
$GPGSA,A,3,10,23,27,32,,,,,,,,,1.9,1.6,1.0*38
$GPGSA,A,3,65,71,72,87,,,,,,,,,1.9,1.6,1.0*33
$GPGSA,A,3,07,19,29,33,,,,,,,,,1.9,1.6,1.0*38
$GPGSA,A,3,05,13,27,28,32,33,41,,,,,,1.9,1.6,1.0*30
$GPGST,161004.00,3.490,6.424,1.578,82.579,1.772,6.374,4.030*67
$GPGGA,161005.00,4326.7230312,N,00133.0668875,W,1,19,1.6,50.0351,M,50.7945,M,,*4C
$GPGSA,A,3,10,23,27,32,,,,,,,,,1.9,1.6,1.0*38
$GPGSA,A,3,65,71,72,87,,,,,,,,,1.9,1.6,1.0*33
$GPGSA,A,3,07,19,29,33,,,,,,,,,1.9,1.6,1.0*38
$GPGSA,A,3,05,13,27,28,32,33,41,,,,,,1.9,1.6,1.0*30
$GPGST,161005.00,4.521,6.490,1.604,83.018,1.777,6.445,4.117*6A
$GPGGA,161006.00,4326.7223647,N,00133.0666478,W,1,19,1.6,49.9470,M,50.7945,M,,*42
$GPGSA,A,3,10,23,27,32,,,,,,,,,1.9,1.6,1.0*38
$GPGSA,A,3,65,71,72,87,,,,,,,,,1.9,1.6,1.0*33
$GPGSA,A,3,07,19,29,33,,,,,,,,,1.9,1.6,1.0*38
$GPGSA,A,3,05,13,27,28,32,33,41,,,,,,1.9,1.6,1.0*30
$GPGST,161006.00,4.571,6.353,1.435,81.432,1.706,6.286,3.758*6F
$GPGGA,161007.00,4326.7217326,N,00133.0664677,W,1,19,1.6,49.9577,M,50.7945,M,,*4F
$GPGSA,A,3,10,23,27,32,,,,,,,,,1.9,1.6,1.0*38
$GPGSA,A,3,65,71,72,87,,,,,,,,,1.9,1.6,1.0*33
$GPGSA,A,3,07,19,29,33,,,,,,,,,1.9,1.6,1.0*38
$GPGSA,A,3,05,13,27,28,32,33,41,,,,,,1.9,1.6,1.0*30
$GPGST,161007.00,4.781,6.317,1.376,80.879,1.688,6.241,3.622*61
$GPGSV,3,1,12,08,78,318,40,23,13,040,44,32,16,113,44,16,20,174,*74
$GPGSV,3,2,12,01,29,257,,10,52,062,48,02,51,275,,27,60,114,49*73
$GPGSV,3,3,12,14,03,327,,07,03,270,,30,03,300,,03,01,206,*7E
$GLGSV,3,1,09,88,58,328,,87,34,062,39,71,14,024,42,81,15,282,*6A
$GLGSV,3,2,09,65,26,141,39,79,28,317,,72,39,073,43,78,39,253,*68
$GLGSV,3,3,09,77,08,199,*55
$GAGSV,4,1,13,12,66,279,,31,40,189,,29,15,087,41,25,18,319,*66
$GAGSV,4,2,13,11,16,253,,18,21,116,,33,49,051,46,16,38,304,*63
$GAGSV,4,3,13,10,43,261,,24,55,272,,26,03,065,36,07,07,036,37*6F
$GAGSV,4,4,13,19,07,130,34*50
$GBGSV,3,1,11,30,71,323,37,13,15,037,42,05,14,110,39,29,20,286,*61
$GBGSV,3,2,11,41,37,069,49,32,37,142,48,27,46,082,50,08,03,031,*66
$GBGSV,3,3,11,28,05,094,40,33,06,029,37,20,01,184,*5A
$GPGGA,161008.00,4326.7210620,N,00133.0664033,W,1,19,1.6,49.9190,M,50.7945,M,,*4F
$GPGSA,A,3,10,23,27,32,,,,,,,,,1.9,1.6,1.0*38
$GPGSA,A,3,65,71,72,87,,,,,,,,,1.9,1.6,1.0*33
$GPGSA,A,3,07,19,29,33,,,,,,,,,1.9,1.6,1.0*38
$GPGSA,A,3,05,13,27,28,32,33,41,,,,,,1.9,1.6,1.0*30
$GPGST,161008.00,4.915,6.313,1.370,80.671,1.696,6.234,3.622*64
$GPGGA,161009.00,4326.7203040,N,00133.0666461,W,1,19,1.6,49.8952,M,50.7945,M,,*4A
$GPGSA,A,3,10,23,27,32,,,,,,,,,1.9,1.6,1.0*38
$GPGSA,A,3,65,71,72,87,,,,,,,,,1.9,1.6,1.0*33
$GPGSA,A,3,07,19,29,33,,,,,,,,,1.9,1.6,1.0*38
$GPGSA,A,3,05,13,27,28,32,33,41,,,,,,1.9,1.6,1.0*30
$GPGST,161009.00,4.831,6.326,1.374,80.689,1.699,6.247,3.623*6D
$GPGGA,161010.00,4326.7197373,N,00133.0672161,W,1,19,1.6,49.8550,M,50.7945,M,,*41
$GPGSA,A,3,10,23,27,32,,,,,,,,,1.9,1.6,1.0*38
$GPGSA,A,3,65,71,72,87,,,,,,,,,1.9,1.6,1.0*33
$GPGSA,A,3,07,19,29,33,,,,,,,,,1.9,1.6,1.0*38
$GPGSA,A,3,05,13,27,28,32,33,41,,,,,,1.9,1.6,1.0*30
$GPGST,161010.00,4.648,6.286,1.364,80.754,1.683,6.209,3.605*6B
$GPGGA,161011.00,4326.7193447,N,00133.0679048,W,1,19,1.6,49.8138,M,50.7945,M,,*4F
$GPGSA,A,3,10,23,27,32,,,,,,,,,1.9,1.6,1.0*38
$GPGSA,A,3,65,71,72,87,,,,,,,,,1.9,1.6,1.0*33
$GPGSA,A,3,07,19,29,33,,,,,,,,,1.9,1.6,1.0*38
$GPGSA,A,3,05,13,27,28,32,33,41,,,,,,1.9,1.6,1.0*30
$GPGST,161011.00,4.554,6.304,1.375,80.803,1.691,6.227,3.609*61
$GPGGA,161012.00,4326.7190477,N,00133.0686894,W,1,19,1.6,49.8996,M,50.7945,M,,*49
$GPGSA,A,3,10,23,27,32,,,,,,,,,1.9,1.6,1.0*38
$GPGSA,A,3,65,71,72,87,,,,,,,,,1.9,1.6,1.0*33
$GPGSA,A,3,07,19,29,33,,,,,,,,,1.9,1.6,1.0*38
$GPGSA,A,3,05,13,27,28,32,33,41,,,,,,1.9,1.6,1.0*30
$GPGST,161012.00,4.462,6.285,1.362,80.728,1.683,6.207,3.602*64
$GPGSV,3,1,12,08,78,318,37,23,13,040,42,32,16,113,45,16,20,174,41*76
$GPGSV,3,2,12,01,29,257,,10,52,062,48,02,51,275,,27,60,114,49*73
$GPGSV,3,3,12,14,03,327,,07,03,270,,30,03,300,,03,01,206,*7E
$GLGSV,3,1,09,88,58,328,,87,34,062,44,71,14,024,41,81,15,282,*63
$GLGSV,3,2,09,65,26,141,42,79,28,317,,72,39,073,44,78,39,253,*63
$GLGSV,3,3,09,77,08,199,*55
$GAGSV,4,1,13,12,66,279,,31,40,189,,29,15,087,42,25,18,319,*65
$GAGSV,4,2,13,11,16,253,,18,21,116,,33,49,051,40,16,38,304,*65
$GAGSV,4,3,13,10,43,261,,24,55,272,,26,03,065,38,07,07,036,39*6F
$GAGSV,4,4,13,19,07,130,35*51
$GBGSV,3,1,11,30,71,323,35,13,15,037,43,05,14,110,41,41,37,069,48*6A
$GBGSV,3,2,11,29,20,286,,32,37,142,48,27,46,082,50,08,03,031,22*60
$GBGSV,3,3,11,28,05,094,40,33,06,029,40,20,01,184,*5A
$GPGGA,161013.00,4326.7189450,N,00133.0695208,W,1,19,1.6,49.8179,M,50.7945,M,,*41
$GPGSA,A,3,10,23,27,32,,,,,,,,,1.9,1.6,1.0*38
$GPGSA,A,3,65,71,72,87,,,,,,,,,1.9,1.6,1.0*33
$GPGSA,A,3,07,19,29,33,,,,,,,,,1.9,1.6,1.0*38
$GPGSA,A,3,05,13,27,28,32,33,41,,,,,,1.9,1.6,1.0*30
$GPGST,161013.00,3.480,6.405,1.419,81.051,1.720,6.331,3.756*6F
$GPGGA,161014.00,4326.7189075,N,00133.0702402,W,1,19,1.6,49.8214,M,50.7945,M,,*4E
$GPGSA,A,3,10,23,27,32,,,,,,,,,1.9,1.6,1.0*38
$GPGSA,A,3,65,71,72,87,,,,,,,,,1.9,1.6,1.0*33
$GPGSA,A,3,07,19,29,33,,,,,,,,,1.9,1.6,1.0*38
$GPGSA,A,3,05,13,27,28,32,33,41,,,,,,1.9,1.6,1.0*30
$GPGST,161014.00,3.301,6.455,1.386,80.360,1.742,6.368,3.763*6C
$GPGGA,161015.00,4326.7188098,N,00133.0711464,W,1,19,1.6,49.7742,M,50.7945,M,,*46
$GPGSA,A,3,10,23,27,32,,,,,,,,,1.9,1.6,1.0*38
$GPGSA,A,3,65,71,72,87,,,,,,,,,1.9,1.6,1.0*33
$GPGSA,A,3,07,19,29,33,,,,,,,,,1.9,1.6,1.0*38
$GPGSA,A,3,05,13,27,28,32,33,41,,,,,,1.9,1.6,1.0*30
$GPGST,161015.00,4.613,6.831,1.468,79.889,1.878,6.730,4.129*6F
$GPGGA,161016.00,4326.7187463,N,00133.0718939,W,1,18,1.6,49.6851,M,50.7945,M,,*4B
$GPGSA,A,3,10,23,27,32,,,,,,,,,2.0,1.6,1.1*33
$GPGSA,A,3,65,71,72,87,,,,,,,,,2.0,1.6,1.1*38
$GPGSA,A,3,07,19,29,,,,,,,,,,2.0,1.6,1.1*33
$GPGSA,A,3,05,13,27,28,32,33,41,,,,,,2.0,1.6,1.1*3B
$GPGST,161016.00,5.992,7.569,1.631,78.626,2.187,7.427,4.992*68
$GPGGA,161017.00,4326.7187370,N,00133.0724938,W,1,16,1.8,49.7411,M,50.7945,M,,*48
$GPGSA,A,3,10,23,27,32,,,,,,,,,2.1,1.8,1.2*3F
$GPGSA,A,3,65,71,72,,,,,,,,,,2.1,1.8,1.2*3B
$GPGSA,A,3,07,19,29,,,,,,,,,,2.1,1.8,1.2*3F
$GPGSA,A,3,05,13,27,28,32,41,,,,,,,2.1,1.8,1.2*37
$GPGST,161017.00,6.059,7.877,1.892,78.845,2.401,7.737,5.293*68
$GPGSV,3,1,12,08,78,318,32,23,13,040,28,32,16,113,44,16,20,174,42*7D
$GPGSV,3,2,12,01,29,257,,10,52,061,33,02,51,276,,27,60,114,49*7F
$GPGSV,3,3,12,14,03,327,,07,03,270,,30,03,300,,03,01,206,*7E
$GLGSV,3,1,09,88,58,328,,87,34,063,29,71,14,024,24,81,15,282,*6A
$GLGSV,3,2,09,65,26,141,41,79,28,317,,72,39,073,30,78,39,253,44*63
$GLGSV,3,3,09,77,08,199,*55
$GAGSV,4,1,13,12,66,279,,31,40,189,43,29,15,086,44,25,18,319,*65
$GAGSV,4,2,13,11,16,253,,18,21,116,,33,49,051,28,16,38,304,*6B
$GAGSV,4,3,13,10,43,261,40,24,55,272,,26,03,065,38,07,07,036,27*64
$GAGSV,4,4,13,19,07,130,35*51
$GBGSV,3,1,11,30,71,323,32,13,15,037,31,05,14,110,40,41,37,069,38*6E
$GBGSV,3,2,11,29,20,286,,32,37,142,47,27,46,082,42,08,03,031,*6C
$GBGSV,3,3,11,28,05,094,44,33,06,029,25,20,01,184,*5D
$GPGGA,161018.00,4326.7187559,N,00133.0735260,W,1,15,2.1,49.3272,M,50.7945,M,,*42
$GPGSA,A,3,10,23,27,32,,,,,,,,,2.5,2.1,1.4*37
$GPGSA,A,3,65,72,,,,,,,,,,,2.5,2.1,1.4*35
$GPGSA,A,3,19,29,33,,,,,,,,,,2.5,2.1,1.4*30
$GPGSA,A,3,05,13,27,28,32,41,,,,,,,2.5,2.1,1.4*3F
$GPGST,161018.00,6.556,8.464,2.666,86.417,2.713,8.449,6.236*69
$GPGGA,161019.00,4326.7186731,N,00133.0742116,W,1,15,1.3,49.3014,M,50.7945,M,,*4F
$GPGSA,A,3,10,23,27,32,,,,,,,,,1.8,1.3,1.2*3E
$GPGSA,A,3,65,,,,,,,,,,,,1.8,1.3,1.2*39
$GPGSA,A,3,07,19,29,31,33,,,,,,,,1.8,1.3,1.2*3C
$GPGSA,A,3,05,13,27,28,32,,,,,,,,1.8,1.3,1.2*33
$GPGST,161019.00,4.957,6.940,2.881,277.703,3.002,6.888,6.169*5F
$GPGGA,161020.00,4326.7186262,N,00133.0746939,W,1,15,1.3,49.3976,M,50.7945,M,,*4A
$GPGSA,A,3,10,23,27,32,,,,,,,,,1.9,1.3,1.3*3E
$GPGSA,A,3,65,72,,,,,,,,,,,1.9,1.3,1.3*3C
$GPGSA,A,3,19,29,31,,,,,,,,,,1.9,1.3,1.3*3B
$GPGSA,A,3,05,13,27,28,32,41,,,,,,,1.9,1.3,1.3*36
$GPGST,161020.00,8.850,10.465,2.731,304.610,6.355,8.751,9.132*60
$GPGGA,161021.00,4326.7185326,N,00133.0754061,W,1,16,1.2,49.3612,M,50.7945,M,,*41
$GPGSA,A,3,10,23,27,32,,,,,,,,,1.7,1.2,1.1*33
$GPGSA,A,3,65,72,,,,,,,,,,,1.7,1.2,1.1*31
$GPGSA,A,3,19,29,31,33,,,,,,,,,1.7,1.2,1.1*36
$GPGSA,A,3,05,27,28,32,33,41,,,,,,,1.7,1.2,1.1*39
$GPGST,161021.00,8.445,10.116,2.548,303.464,5.970,8.555,8.961*65
$GPGGA,161022.00,4326.7184407,N,00133.0760645,W,1,16,1.3,49.2103,M,50.7945,M,,*47
$GPGSA,A,3,10,23,27,32,,,,,,,,,1.8,1.3,1.2*3E
$GPGSA,A,3,65,72,,,,,,,,,,,1.8,1.3,1.2*3C
$GPGSA,A,3,19,29,31,33,,,,,,,,,1.8,1.3,1.2*3B
$GPGSA,A,3,05,13,27,28,32,41,,,,,,,1.8,1.3,1.2*36
$GPGST,161022.00,22.323,11.399,2.514,303.871,6.687,9.568,10.120*63
$GPGSV,3,1,12,08,78,318,29,23,13,040,26,32,16,113,42,16,20,174,42*7F
$GPGSV,3,2,12,01,29,257,36,10,52,061,21,02,51,276,27,27,60,114,39*7B
$GPGSV,3,3,12,14,03,327,,07,03,270,,30,03,300,,03,01,206,*7E
$GLGSV,3,1,09,88,58,328,,87,34,063,,71,14,024,,81,15,282,*67
$GLGSV,3,2,09,65,26,141,42,79,28,317,,72,39,073,25,78,39,253,34*63
$GLGSV,3,3,09,77,08,199,*55
$GAGSV,4,1,13,12,66,279,,31,40,189,44,29,15,086,38,25,18,319,*69
$GAGSV,4,2,13,11,16,253,,18,21,116,,33,49,051,22,16,38,304,*61
$GAGSV,4,3,13,10,43,261,35,24,55,272,29,26,03,065,35,07,07,036,24*63
$GAGSV,4,4,13,19,07,130,36*52
$GBGSV,3,1,11,30,71,323,20,13,15,037,23,05,14,110,39,41,37,069,26*6F
$GBGSV,3,2,11,29,20,286,,32,37,142,48,27,46,082,30,08,03,031,*66
$GBGSV,3,3,11,28,05,094,41,33,06,029,20,20,01,184,*5D
$GPGGA,161023.00,4326.7184381,N,00133.0766793,W,1,16,1.2,49.2809,M,50.7945,M,,*41
$GPGSA,A,3,10,23,27,32,,,,,,,,,1.6,1.2,1.1*32
$GPGSA,A,3,65,72,,,,,,,,,,,1.6,1.2,1.1*30
$GPGSA,A,3,07,19,29,31,33,,,,,,,,1.6,1.2,1.1*30
$GPGSA,A,3,05,13,27,32,33,,,,,,,,1.6,1.2,1.1*35
$GPGST,161023.00,9.340,17.972,2.713,307.472,11.144,14.359,15.075*5B
$GPGGA,161024.00,4326.7184521,N,00133.0770554,W,1,15,1.2,49.2501,M,50.7945,M,,*42
$GPGSA,A,3,10,23,27,32,,,,,,,,,1.7,1.2,1.2*30
$GPGSA,A,3,65,71,,,,,,,,,,,1.7,1.2,1.2*31
$GPGSA,A,3,19,29,31,33,,,,,,,,,1.7,1.2,1.2*35
$GPGSA,A,3,05,13,27,32,41,,,,,,,,1.7,1.2,1.2*32
$GPGST,161024.00,17.661,18.295,3.015,308.104,11.536,14.516,15.452*6E
$GPGGA,161025.00,4326.7184739,N,00133.0768361,W,1,13,2.2,49.0162,M,50.7945,M,,*47
$GPGSA,A,3,27,32,,,,,,,,,,,3.2,2.2,2.3*36
$GPGSA,A,3,65,72,87,,,,,,,,,,3.2,2.2,2.3*3B
$GPGSA,A,3,19,29,31,33,,,,,,,,,3.2,2.2,2.3*33
$GPGSA,A,3,05,27,32,41,,,,,,,,,3.2,2.2,2.3*36
$GPGST,161025.00,14.370,18.243,2.994,308.097,11.500,14.475,15.321*6A
$GPGGA,161026.00,4326.7184664,N,00133.0764676,W,1,13,2.2,48.8487,M,50.7945,M,,*45
$GPGSA,A,3,27,32,,,,,,,,,,,3.2,2.2,2.3*36
$GPGSA,A,3,65,72,87,,,,,,,,,,3.2,2.2,2.3*3B
$GPGSA,A,3,19,29,31,33,,,,,,,,,3.2,2.2,2.3*33
$GPGSA,A,3,05,27,32,41,,,,,,,,,3.2,2.2,2.3*36
$GPGST,161026.00,20.204,26.482,3.732,303.226,14.842,22.247,31.375*61
$GPGGA,161027.00,4326.7185925,N,00133.0758760,W,1,13,2.3,48.8671,M,50.7945,M,,*4C
$GPGSA,A,3,10,27,32,,,,,,,,,,3.3,2.3,2.4*30
$GPGSA,A,3,65,72,,,,,,,,,,,3.3,2.3,2.4*33
$GPGSA,A,3,19,29,31,33,,,,,,,,,3.3,2.3,2.4*34
$GPGSA,A,3,05,27,32,41,,,,,,,,,3.3,2.3,2.4*31
$GPGST,161027.00,29.214,25.081,4.149,303.651,14.321,21.004,29.511*60
$GPGSV,3,1,12,08,78,318,,23,13,040,22,32,16,113,43,16,20,174,43*70
$GPGSV,3,2,12,01,29,257,28,10,52,061,23,02,51,276,30,27,60,114,33*7A
$GPGSV,3,3,12,14,03,327,,07,03,270,,30,03,300,,03,01,206,*7E
$GLGSV,3,1,09,88,58,328,,87,34,063,,71,14,024,,81,15,282,*67
$GLGSV,3,2,09,65,26,141,40,79,28,316,,78,39,253,30,72,39,072,26*66
$GLGSV,3,3,09,77,08,199,*55
$GAGSV,4,1,13,12,66,279,,31,40,189,43,29,15,086,34,25,18,319,*62
$GAGSV,4,2,13,11,16,253,,18,21,116,,33,49,051,21,16,38,304,*62
$GAGSV,4,3,13,10,43,261,27,24,55,272,,26,03,065,24,07,07,036,*6D
$GAGSV,4,4,13,19,07,130,36*52
$GBGSV,3,1,11,30,71,323,,13,15,037,,05,14,110,38,41,37,069,19*61
$GBGSV,3,2,11,29,20,286,,32,37,142,49,27,46,082,27,08,03,031,*61
$GBGSV,3,3,11,28,05,094,42,33,06,029,,20,01,184,*5C
$GPGGA,161028.00,4326.7187530,N,00133.0750853,W,1,14,1.5,49.0938,M,50.7945,M,,*47
$GPGSA,A,3,10,23,27,32,,,,,,,,,2.1,1.5,1.5*35
$GPGSA,A,3,65,72,,,,,,,,,,,2.1,1.5,1.5*37
$GPGSA,A,3,19,29,31,33,,,,,,,,,2.1,1.5,1.5*30
$GPGSA,A,3,05,27,32,41,,,,,,,,,2.1,1.5,1.5*35
$GPGST,161028.00,26.995,26.641,4.669,302.833,14.968,22.528,32.911*6C
$GPGGA,161029.00,4326.7188025,N,00133.0742692,W,1,16,1.2,48.9765,M,50.7945,M,,*43
$GPGSA,A,3,10,23,27,32,,,,,,,,,1.6,1.2,1.1*32
$GPGSA,A,3,65,71,72,,,,,,,,,,1.6,1.2,1.1*36
$GPGSA,A,3,19,29,31,33,,,,,,,,,1.6,1.2,1.1*37
$GPGSA,A,3,05,27,32,33,41,,,,,,,,1.6,1.2,1.1*32
$GPGST,161029.00,24.668,24.980,4.634,302.836,14.094,21.139,31.153*6F
$GPGGA,161030.00,4326.7187132,N,00133.0735175,W,1,15,1.2,48.8046,M,50.7945,M,,*49
$GPGSA,A,3,10,23,27,32,,,,,,,,,1.7,1.2,1.2*30
$GPGSA,A,3,65,72,,,,,,,,,,,1.7,1.2,1.2*32
$GPGSA,A,3,19,29,31,,,,,,,,,,1.7,1.2,1.2*35
$GPGSA,A,3,05,13,27,32,33,41,,,,,,,1.7,1.2,1.2*32
$GPGST,161030.00,18.085,22.421,4.251,305.135,13.363,18.498,25.163*69
$GPGGA,161031.00,4326.7188024,N,00133.0726949,W,1,16,1.2,48.6314,M,50.7945,M,,*4D
$GPGSA,A,3,10,16,23,27,32,,,,,,,,1.7,1.2,1.2*37
$GPGSA,A,3,65,72,,,,,,,,,,,1.7,1.2,1.2*32
$GPGSA,A,3,19,29,31,33,,,,,,,,,1.7,1.2,1.2*35
$GPGSA,A,3,05,13,27,32,41,,,,,,,,1.7,1.2,1.2*32
$GPGST,161031.00,22.482,20.129,3.689,310.910,13.474,15.403,19.613*61
$GPGGA,161032.00,4326.7190687,N,00133.0716522,W,1,16,1.1,48.7898,M,50.7945,M,,*47
$GPGSA,A,3,10,16,27,32,,,,,,,,,1.6,1.1,1.2*34
$GPGSA,A,3,65,71,72,,,,,,,,,,1.6,1.1,1.2*36
$GPGSA,A,3,19,29,31,33,,,,,,,,,1.6,1.1,1.2*37
$GPGSA,A,3,05,13,27,32,41,,,,,,,,1.6,1.1,1.2*30
$GPGST,161032.00,22.484,13.098,2.014,318.483,9.897,8.812,11.242*61
$GPGSV,3,1,12,08,78,318,,23,13,040,25,32,16,113,43,16,20,174,45*71
$GPGSV,3,2,12,01,29,257,37,10,52,061,21,02,51,276,28,27,60,114,42*79
$GPGSV,3,3,12,14,04,327,,07,03,270,,30,03,300,,03,01,206,*79
$GLGSV,3,1,09,88,58,328,,87,34,063,,71,14,024,21,81,16,282,*67
$GLGSV,3,2,09,65,27,141,39,79,28,316,,78,39,253,38,72,39,072,30*66
$GLGSV,3,3,09,77,08,199,*55
$GAGSV,4,1,13,12,66,279,,31,40,189,45,29,15,086,40,25,18,319,*67
$GAGSV,4,2,13,11,16,253,,18,21,116,,33,49,052,25,16,38,304,*65
$GAGSV,4,3,13,10,43,261,30,24,55,272,,26,03,065,33,07,07,036,19*65
$GAGSV,4,4,13,19,07,130,36*52
$GBGSV,3,1,11,30,71,323,29,13,15,037,28,05,14,110,39,41,37,069,31*6B
$GBGSV,3,2,11,29,20,286,,32,37,142,49,27,46,082,29,08,03,031,*6F
$GBGSV,3,3,11,28,05,094,40,33,06,029,22,20,01,184,*5E
$GPGGA,161033.00,4326.7192532,N,00133.0706229,W,1,16,1.1,48.7486,M,50.7945,M,,*47
$GPGSA,A,3,16,23,27,32,,,,,,,,,1.6,1.1,1.2*34
$GPGSA,A,3,65,71,72,,,,,,,,,,1.6,1.1,1.2*36
$GPGSA,A,3,19,29,31,33,,,,,,,,,1.6,1.1,1.2*37
$GPGSA,A,3,05,13,27,32,41,,,,,,,,1.6,1.1,1.2*30
$GPGST,161033.00,21.333,12.000,1.970,318.376,9.065,8.105,10.812*69
$GPGGA,161034.00,4326.7193119,N,00133.0697697,W,1,16,1.1,48.5485,M,50.7945,M,,*45
$GPGSA,A,3,10,16,23,27,32,,,,,,,,1.6,1.1,1.2*35
$GPGSA,A,3,65,71,,,,,,,,,,,1.6,1.1,1.2*33
$GPGSA,A,3,07,19,29,31,,,,,,,,,1.6,1.1,1.2*30
$GPGSA,A,3,05,13,32,33,41,,,,,,,,1.6,1.1,1.2*35
$GPGST,161034.00,34.127,12.424,1.464,318.429,9.345,8.316,8.311*5A
$GPGGA,161035.00,4326.7192678,N,00133.0688757,W,1,16,1.1,47.7948,M,50.7945,M,,*47
$GPGSA,A,3,10,16,23,27,32,,,,,,,,1.6,1.1,1.1*36
$GPGSA,A,3,65,87,,,,,,,,,,,1.6,1.1,1.1*39
$GPGSA,A,3,07,19,29,31,,,,,,,,,1.6,1.1,1.1*33
$GPGSA,A,3,05,13,27,32,33,,,,,,,,1.6,1.1,1.1*36
$GPGST,161035.00,58.251,7.870,1.498,316.471,5.799,5.528,5.688*6D
$GPGGA,161036.00,4326.7191983,N,00133.0678754,W,1,18,0.8,47.5195,M,50.7945,M,,*4C
$GPGSA,A,3,10,16,27,32,,,,,,,,,1.3,0.8,1.1*3A
$GPGSA,A,3,65,71,87,,,,,,,,,,1.3,0.8,1.1*32
$GPGSA,A,3,07,10,19,29,31,,,,,,,,1.3,0.8,1.1*3F
$GPGSA,A,3,05,13,27,32,33,41,,,,,,,1.3,0.8,1.1*3E
$GPGST,161036.00,29.214,4.017,1.490,317.975,3.146,2.908,3.661*69
$GPGGA,161037.00,4326.7194550,N,00133.0671005,W,1,21,0.7,47.0864,M,50.7945,M,,*47
$GPGSA,A,3,10,16,23,27,32,,,,,,,,1.2,0.7,1.0*34
$GPGSA,A,3,65,71,72,87,,,,,,,,,1.2,0.7,1.0*38
$GPGSA,A,3,07,10,19,29,31,33,,,,,,,1.2,0.7,1.0*30
$GPGSA,A,3,05,13,27,32,33,41,,,,,,,1.2,0.7,1.0*31
$GPGST,161037.00,14.961,3.018,1.388,322.301,2.534,2.148,3.350*6D
$GPGSV,3,1,12,08,78,318,28,23,13,040,42,32,16,113,45,16,20,174,44*7D
$GPGSV,3,2,12,01,30,257,35,10,51,061,33,02,51,276,28,27,60,114,49*78
$GPGSV,3,3,12,14,04,327,,07,03,270,,30,03,300,,03,01,206,*79
$GLGSV,3,1,09,88,58,329,,87,34,063,41,71,14,024,39,81,16,282,*6A
$GLGSV,3,2,09,65,27,141,40,79,28,316,,72,39,072,44,78,39,253,40*64
$GLGSV,3,3,09,77,08,199,*55
$GAGSV,4,1,13,12,66,279,,31,40,189,45,29,15,086,42,25,18,319,*65
$GAGSV,4,2,13,11,16,253,,18,21,116,,33,49,052,32,16,38,304,*63
$GAGSV,4,3,13,10,43,261,31,24,55,272,,26,03,065,37,07,07,036,38*63
$GAGSV,4,4,13,19,07,130,37*53
$GBGSV,3,1,11,30,71,324,26,13,15,037,36,05,14,110,40,41,37,069,43*67
$GBGSV,3,2,11,29,20,286,,32,37,142,48,27,46,082,42,08,03,031,21*60
$GBGSV,3,3,11,28,05,094,36,33,06,029,32,20,01,184,*5E
$GPGGA,161038.00,4326.7199455,N,00133.0664939,W,1,20,1.0,46.7102,M,50.7945,M,,*4B
$GPGSA,A,3,10,16,23,27,32,,,,,,,,1.4,1.0,1.0*34
$GPGSA,A,3,65,71,72,87,,,,,,,,,1.4,1.0,1.0*38
$GPGSA,A,3,07,19,29,31,33,,,,,,,,1.4,1.0,1.0*31
$GPGSA,A,3,05,13,27,32,33,41,,,,,,,1.4,1.0,1.0*31
$GPGST,161038.00,6.165,3.505,1.462,314.684,2.675,2.696,3.282*56
$GPGGA,161039.00,4326.7205046,N,00133.0659300,W,1,18,1.0,46.3395,M,50.7945,M,,*47
$GPGSA,A,3,16,23,27,32,,,,,,,,,1.5,1.0,1.1*35
$GPGSA,A,3,65,71,72,87,,,,,,,,,1.5,1.0,1.1*38
$GPGSA,A,3,07,19,29,31,33,,,,,,,,1.5,1.0,1.1*31
$GPGSA,A,3,05,13,27,32,41,,,,,,,,1.5,1.0,1.1*31
$GPGST,161039.00,4.896,3.606,1.355,308.287,2.475,2.953,3.137*50
$GPGGA,161040.00,4326.7210195,N,00133.0656136,W,1,20,1.0,46.2017,M,50.7945,M,,*49
$GPGSA,A,3,10,16,23,27,32,,,,,,,,1.4,1.0,1.0*34
$GPGSA,A,3,65,71,72,87,,,,,,,,,1.4,1.0,1.0*38
$GPGSA,A,3,07,19,29,31,33,,,,,,,,1.4,1.0,1.0*31
$GPGSA,A,3,05,13,27,32,33,41,,,,,,,1.4,1.0,1.0*31
$GPGST,161040.00,5.555,2.497,0.988,289.701,1.254,2.375,2.591*5F
$GPGGA,161041.00,4326.7216528,N,00133.0654957,W,1,20,1.0,46.0775,M,50.7945,M,,*40
$GPGSA,A,3,10,16,23,27,32,,,,,,,,1.4,1.0,1.0*34
$GPGSA,A,3,65,71,72,87,,,,,,,,,1.4,1.0,1.0*38
$GPGSA,A,3,07,19,29,31,33,,,,,,,,1.4,1.0,1.0*31
$GPGSA,A,3,05,13,27,32,33,41,,,,,,,1.4,1.0,1.0*31
$GPGST,161041.00,4.737,2.381,1.057,289.396,1.273,2.273,2.365*56
$GPGGA,161042.00,4326.7223199,N,00133.0656105,W,1,20,1.0,45.9565,M,50.7945,M,,*4F
$GPGSA,A,3,10,16,23,27,32,,,,,,,,1.4,1.0,1.0*34
$GPGSA,A,3,65,71,72,87,,,,,,,,,1.4,1.0,1.0*38
$GPGSA,A,3,07,19,29,31,33,,,,,,,,1.4,1.0,1.0*31
$GPGSA,A,3,05,13,27,32,33,41,,,,,,,1.4,1.0,1.0*31
$GPGST,161042.00,11.000,2.404,1.057,289.449,1.278,2.294,2.357*6E
$GPGSV,3,1,12,08,78,318,,23,13,040,42,32,16,113,44,16,20,174,44*76
$GPGSV,3,2,12,01,30,257,,10,51,061,43,02,51,276,25,27,60,114,48*75
$GPGSV,3,3,12,14,04,327,,07,03,269,,30,03,300,,03,01,206,*71
$GLGSV,3,1,09,88,58,329,,87,34,063,42,71,14,024,38,81,16,282,*68
$GLGSV,3,2,09,65,27,141,36,79,28,316,,72,39,072,43,78,39,253,*66
$GLGSV,3,3,09,77,08,199,24*53
$GAGSV,4,1,13,12,66,279,,31,40,189,30,29,15,086,41,25,18,319,*64
$GAGSV,4,2,13,11,16,253,,18,21,116,,33,49,052,45,16,38,304,*63
$GAGSV,4,3,13,10,43,261,21,24,55,271,,26,03,065,34,07,07,036,34*6E
$GAGSV,4,4,13,19,07,130,32*56
$GBGSV,3,1,11,30,71,324,,13,15,037,42,05,14,110,40,41,37,069,48*6B
$GBGSV,3,2,11,29,20,286,,32,37,142,46,27,46,082,48,08,03,032,*64
$GBGSV,3,3,11,28,05,094,37,33,06,029,30,20,01,184,*5D
$GPGGA,161043.00,4326.7230494,N,00133.0657639,W,1,19,1.2,46.0866,M,50.7945,M,,*41
$GPGSA,A,3,10,16,23,27,32,,,,,,,,1.6,1.2,1.0*34
$GPGSA,A,3,65,71,72,87,,,,,,,,,1.6,1.2,1.0*38
$GPGSA,A,3,07,19,29,33,,,,,,,,,1.6,1.2,1.0*33
$GPGSA,A,3,05,13,27,32,33,41,,,,,,,1.6,1.2,1.0*31
$GPGST,161043.00,3.935,2.490,1.021,285.982,1.198,2.410,2.189*5F
$GPGGA,161044.00,4326.7237566,N,00133.0658549,W,1,19,1.2,46.2981,M,50.7945,M,,*4C
$GPGSA,A,3,10,16,23,27,32,,,,,,,,1.6,1.2,1.0*34
$GPGSA,A,3,65,71,72,87,,,,,,,,,1.6,1.2,1.0*38
$GPGSA,A,3,07,19,29,33,,,,,,,,,1.6,1.2,1.0*33
$GPGSA,A,3,05,13,27,32,33,41,,,,,,,1.6,1.2,1.0*31
$GPGST,161044.00,3.596,2.534,0.986,284.564,1.147,2.465,2.083*59
$GPGGA,161045.00,4326.7243031,N,00133.0659111,W,1,18,1.3,46.2001,M,50.7944,M,,*41
$GPGSA,A,3,10,16,23,27,32,,,,,,,,1.6,1.3,1.0*35
$GPGSA,A,3,65,71,72,87,,,,,,,,,1.6,1.3,1.0*39
$GPGSA,A,3,07,19,29,33,,,,,,,,,1.6,1.3,1.0*32
$GPGSA,A,3,05,13,27,32,41,,,,,,,,1.6,1.3,1.0*30
$GPGST,161045.00,4.483,3.965,1.350,271.114,1.351,3.965,2.643*59
$GPGGA,161046.00,4326.7248559,N,00133.0659985,W,1,18,1.7,46.0472,M,50.7944,M,,*41
$GPGSA,A,3,10,23,27,32,,,,,,,,,2.0,1.7,1.0*33
$GPGSA,A,3,65,71,72,87,,,,,,,,,2.0,1.7,1.0*38
$GPGSA,A,3,07,19,29,33,,,,,,,,,2.0,1.7,1.0*33
$GPGSA,A,3,05,13,27,32,33,41,,,,,,,2.0,1.7,1.0*31
$GPGST,161046.00,4.591,5.150,1.447,85.117,1.507,5.133,3.112*61
$GPGGA,161047.00,4326.7254274,N,00133.0660762,W,1,17,1.3,46.0596,M,50.7944,M,,*48
$GPGSA,A,3,16,23,27,32,,,,,,,,,1.7,1.3,1.1*34
$GPGSA,A,3,65,71,87,,,,,,,,,,1.7,1.3,1.1*3C
$GPGSA,A,3,07,19,29,33,,,,,,,,,1.7,1.3,1.1*32
$GPGSA,A,3,05,13,27,32,33,41,,,,,,,1.7,1.3,1.1*30
$GPGST,161047.00,4.810,3.644,1.390,272.077,1.395,3.641,2.621*5F
$GPGSV,3,1,12,08,78,318,35,23,13,040,36,32,16,113,44,16,20,174,34*74
$GPGSV,3,2,12,01,30,257,,10,51,061,48,02,51,276,,27,60,114,48*79
$GPGSV,3,3,12,14,04,327,,07,03,269,,30,03,300,,03,01,206,*71
$GLGSV,3,1,09,88,58,329,,87,34,063,44,71,14,024,38,81,16,282,*6E
$GLGSV,3,2,09,65,27,141,39,79,28,316,,72,39,072,44,78,39,253,*6E
$GLGSV,3,3,09,77,08,199,*55
$GAGSV,4,1,13,12,66,279,,31,40,189,22,29,15,086,44,25,18,319,*62
$GAGSV,4,2,13,11,16,253,,18,21,116,,33,49,052,44,16,38,304,*62
$GAGSV,4,3,13,10,43,261,20,24,55,271,,26,03,065,32,07,07,036,34*69
$GAGSV,4,4,13,19,07,130,34*50
$GBGSV,3,1,11,30,71,324,30,13,15,037,40,05,14,110,38,41,37,069,48*65
$GBGSV,3,2,11,29,20,286,,32,37,142,48,27,46,082,49,08,03,032,20*69
$GBGSV,3,3,11,28,05,094,39,33,06,029,44,20,01,184,*50
$GPGGA,161048.00,4326.7261384,N,00133.0661311,W,1,17,1.7,46.3054,M,50.7944,M,,*42
$GPGSA,A,3,23,27,32,,,,,,,,,,2.1,1.7,1.1*32
$GPGSA,A,3,65,71,72,87,,,,,,,,,2.1,1.7,1.1*38
$GPGSA,A,3,07,19,29,33,,,,,,,,,2.1,1.7,1.1*33
$GPGSA,A,3,05,13,27,32,33,41,,,,,,,2.1,1.7,1.1*31
$GPGST,161048.00,4.868,7.330,1.616,79.150,2.103,7.205,4.622*60
$GPGGA,161049.00,4326.7267981,N,00133.0663239,W,1,17,1.7,46.3709,M,50.7944,M,,*4C
$GPGSA,A,3,23,27,32,,,,,,,,,,2.1,1.7,1.1*32
$GPGSA,A,3,65,71,72,87,,,,,,,,,2.1,1.7,1.1*38
$GPGSA,A,3,07,19,29,33,,,,,,,,,2.1,1.7,1.1*33
$GPGSA,A,3,05,13,27,32,33,41,,,,,,,2.1,1.7,1.1*31
$GPGST,161049.00,4.764,8.396,1.748,75.933,2.653,8.156,5.383*6D
$GPGGA,161050.00,4326.7275615,N,00133.0665432,W,1,17,1.7,46.5462,M,50.7944,M,,*46
$GPGSA,A,3,23,27,32,,,,,,,,,,2.1,1.7,1.1*32
$GPGSA,A,3,65,71,72,87,,,,,,,,,2.1,1.7,1.1*38
$GPGSA,A,3,07,19,29,33,,,,,,,,,2.1,1.7,1.1*33
$GPGSA,A,3,05,13,27,32,33,41,,,,,,,2.1,1.7,1.1*31
$GPGST,161050.00,4.279,3.340,1.752,278.328,1.800,3.314,2.828*51
$GPGGA,161051.00,4326.7283420,N,00133.0666985,W,1,17,1.7,46.5686,M,50.7944,M,,*40
$GPGSA,A,3,23,27,32,,,,,,,,,,2.1,1.7,1.1*32
$GPGSA,A,3,65,71,72,87,,,,,,,,,2.1,1.7,1.1*38
$GPGSA,A,3,07,19,29,33,,,,,,,,,2.1,1.7,1.1*33
$GPGSA,A,3,05,13,27,32,33,41,,,,,,,2.1,1.7,1.1*31
$GPGST,161051.00,4.512,7.703,2.027,78.301,2.526,7.554,4.986*6D
$GPGGA,161052.00,4326.7290024,N,00133.0669028,W,1,17,1.7,46.5332,M,50.7944,M,,*4A
$GPGSA,A,3,23,27,32,,,,,,,,,,2.1,1.7,1.1*32
$GPGSA,A,3,65,71,72,87,,,,,,,,,2.1,1.7,1.1*38
$GPGSA,A,3,07,19,29,33,,,,,,,,,2.1,1.7,1.1*33
$GPGSA,A,3,05,13,27,32,33,41,,,,,,,2.1,1.7,1.1*31
$GPGST,161052.00,4.688,8.197,2.385,75.769,3.066,7.967,5.354*6E
$GPGSV,3,1,12,08,78,318,30,23,13,040,38,32,16,113,43,16,20,174,24*79
$GPGSV,3,2,12,01,30,257,,10,51,061,47,02,51,276,,27,60,114,48*76
$GPGSV,3,3,12,14,04,327,,07,03,269,,30,03,300,,03,01,206,*71
$GLGSV,3,1,09,88,58,329,,87,34,063,42,71,14,024,36,81,16,282,*66
$GLGSV,3,2,09,65,27,141,40,79,28,316,,72,39,072,43,78,38,253,*66
$GLGSV,3,3,09,77,08,199,*55
$GAGSV,4,1,13,12,67,279,,31,40,189,21,29,15,086,39,25,18,319,*6A
$GAGSV,4,2,13,11,16,253,,18,21,116,,33,49,052,46,16,38,304,*60
$GAGSV,4,3,13,10,43,261,20,24,55,271,,26,03,065,28,07,07,036,39*6F
$GAGSV,4,4,13,19,07,130,33*57
$GBGSV,3,1,11,30,71,324,29,13,15,037,42,05,14,110,40,41,37,069,47*6F
$GBGSV,3,2,11,29,20,286,,32,37,142,48,27,46,082,51,08,03,032,19*6A
$GBGSV,3,3,11,28,05,094,45,33,06,029,35,20,01,184,*5D
$GPGGA,161053.00,4326.7295926,N,00133.0670700,W,1,17,1.7,46.6527,M,50.7944,M,,*41
$GPGSA,A,3,23,27,32,,,,,,,,,,2.1,1.7,1.1*32
$GPGSA,A,3,65,71,72,87,,,,,,,,,2.1,1.7,1.1*38
$GPGSA,A,3,07,19,29,33,,,,,,,,,2.1,1.7,1.1*33
$GPGSA,A,3,05,13,27,32,33,41,,,,,,,2.1,1.7,1.1*31
$GPGST,161053.00,4.307,7.198,2.191,79.540,2.520,7.090,4.734*6B
$GPGGA,161054.00,4326.7302504,N,00133.0673084,W,1,16,1.8,46.6042,M,50.7944,M,,*45
$GPGSA,A,3,23,27,32,,,,,,,,,,2.2,1.8,1.2*3D
$GPGSA,A,3,65,71,72,87,,,,,,,,,2.2,1.8,1.2*37
$GPGSA,A,3,07,29,33,,,,,,,,,,2.2,1.8,1.2*34
$GPGSA,A,3,05,13,27,32,33,41,,,,,,,2.2,1.8,1.2*3E
$GPGST,161054.00,7.115,8.922,2.484,73.662,3.462,8.590,5.742*6C
$GPGGA,161055.00,4326.7309241,N,00133.0675085,W,1,17,1.7,46.5258,M,50.7944,M,,*4A
$GPGSA,A,3,23,27,32,,,,,,,,,,2.1,1.7,1.1*32
$GPGSA,A,3,65,71,72,87,,,,,,,,,2.1,1.7,1.1*38
$GPGSA,A,3,07,19,29,33,,,,,,,,,2.1,1.7,1.1*33
$GPGSA,A,3,05,13,27,32,33,41,,,,,,,2.1,1.7,1.1*31
$GPGST,161055.00,6.561,7.962,2.054,76.320,2.744,7.752,5.093*61
$GPGGA,161056.00,4326.7315574,N,00133.0677248,W,1,17,1.7,46.6280,M,50.7944,M,,*42
$GPGSA,A,3,23,27,32,,,,,,,,,,2.1,1.7,1.1*32
$GPGSA,A,3,65,71,72,87,,,,,,,,,2.1,1.7,1.1*38
$GPGSA,A,3,07,19,29,33,,,,,,,,,2.1,1.7,1.1*33
$GPGSA,A,3,05,13,27,32,33,41,,,,,,,2.1,1.7,1.1*31
$GPGST,161056.00,5.790,7.115,1.495,78.536,2.037,6.980,4.455*6C
$GPGGA,161057.00,4326.7322121,N,00133.0679294,W,1,17,1.7,46.4845,M,50.7944,M,,*4D
$GPGSA,A,3,23,27,32,,,,,,,,,,2.1,1.7,1.1*32
$GPGSA,A,3,65,71,72,87,,,,,,,,,2.1,1.7,1.1*38
$GPGSA,A,3,07,19,29,33,,,,,,,,,2.1,1.7,1.1*33
$GPGSA,A,3,05,13,27,32,33,41,,,,,,,2.1,1.7,1.1*31
$GPGST,161057.00,5.155,7.233,1.538,78.126,2.116,7.085,4.532*69
$GPGSV,3,1,12,08,78,318,31,23,13,040,44,32,16,113,42,16,20,174,22*74
$GPGSV,3,2,12,01,30,257,,10,51,061,48,02,51,276,,27,60,114,47*76
$GPGSV,3,3,12,14,04,327,,07,03,269,,30,03,300,,03,01,206,*71
$GLGSV,3,1,09,88,58,329,,87,34,063,40,71,14,024,41,81,16,282,*64
$GLGSV,3,2,09,65,27,141,36,79,28,316,,72,39,072,42,78,38,253,*66
$GLGSV,3,3,09,77,08,199,*55
$GAGSV,4,1,13,12,67,279,,31,40,189,21,29,15,086,39,25,18,319,*6A
$GAGSV,4,2,13,11,17,253,,18,21,116,,33,49,052,45,16,38,304,*62
$GAGSV,4,3,13,10,43,261,20,24,55,271,,26,03,065,26,07,07,036,38*60
$GAGSV,4,4,13,19,07,130,33*57
$GBGSV,3,1,11,30,71,324,28,13,15,037,40,05,14,110,37,41,37,069,48*63
$GBGSV,3,2,11,29,20,286,,32,37,142,46,27,46,082,46,08,03,032,*6A
$GBGSV,3,3,11,28,05,094,43,33,06,029,38,20,01,184,*56
$GPGGA,161058.00,4326.7328308,N,00133.0681824,W,1,17,1.7,46.5907,M,50.7944,M,,*41
$GPGSA,A,3,23,27,32,,,,,,,,,,2.1,1.7,1.1*32
$GPGSA,A,3,65,71,72,87,,,,,,,,,2.1,1.7,1.1*38
$GPGSA,A,3,07,19,29,33,,,,,,,,,2.1,1.7,1.1*33
$GPGSA,A,3,05,13,27,32,33,41,,,,,,,2.1,1.7,1.1*31
$GPGST,161058.00,4.626,7.088,1.497,78.426,2.043,6.950,4.420*64
$GPGGA,161059.00,4326.7334578,N,00133.0684939,W,1,16,1.8,46.6679,M,50.7944,M,,*4F
$GPGSA,A,3,23,27,32,,,,,,,,,,2.2,1.8,1.2*3D
$GPGSA,A,3,65,71,72,87,,,,,,,,,2.2,1.8,1.2*37
$GPGSA,A,3,07,29,33,,,,,,,,,,2.2,1.8,1.2*34
$GPGSA,A,3,05,13,27,32,33,41,,,,,,,2.2,1.8,1.2*3E
$GPGST,161059.00,19.906,7.831,1.656,77.145,2.375,7.644,4.986*52
$GPGGA,161100.00,4326.7341195,N,00133.0689077,W,1,16,1.8,46.6796,M,50.7944,M,,*49
$GPGSA,A,3,23,27,32,,,,,,,,,,2.1,1.8,1.1*3D
$GPGSA,A,3,65,71,72,87,,,,,,,,,2.1,1.8,1.1*37
$GPGSA,A,3,07,19,29,33,,,,,,,,,2.1,1.8,1.1*3C
$GPGSA,A,3,13,27,32,33,41,,,,,,,,2.1,1.8,1.1*3B
$GPGST,161100.00,4.000,7.315,1.584,78.224,2.153,7.168,4.576*6A
$GPGGA,161101.00,4326.7347914,N,00133.0692407,W,1,16,1.8,46.8346,M,50.7944,M,,*41
$GPGSA,A,3,23,27,32,,,,,,,,,,2.1,1.8,1.1*3D
$GPGSA,A,3,65,71,72,87,,,,,,,,,2.1,1.8,1.1*37
$GPGSA,A,3,07,19,29,33,,,,,,,,,2.1,1.8,1.1*3C
$GPGSA,A,3,13,27,32,33,41,,,,,,,,2.1,1.8,1.1*3B
$GPGST,161101.00,4.022,7.089,1.567,78.839,2.061,6.961,4.427*63
$GPGGA,161102.00,4326.7354333,N,00133.0694289,W,1,16,1.8,46.9781,M,50.7944,M,,*47
$GPGSA,A,3,23,27,32,,,,,,,,,,2.1,1.8,1.1*3D
$GPGSA,A,3,65,71,72,87,,,,,,,,,2.1,1.8,1.1*37
$GPGSA,A,3,07,19,29,33,,,,,,,,,2.1,1.8,1.1*3C
$GPGSA,A,3,13,27,32,33,41,,,,,,,,2.1,1.8,1.1*3B
$GPGST,161102.00,4.034,7.137,1.547,78.680,2.065,7.005,4.446*64
$GPGSV,3,1,12,08,79,318,26,23,13,040,41,32,16,113,42,16,20,174,*76
$GPGSV,3,2,12,01,30,257,,10,51,061,50,02,51,276,,27,60,114,48*70
$GPGSV,3,3,12,14,04,327,,07,03,269,,30,03,300,,03,01,206,*71
$GLGSV,3,1,09,88,58,329,,87,34,063,42,71,14,024,40,81,16,282,*67
$GLGSV,3,2,09,65,27,141,39,78,38,253,,79,28,316,,72,39,072,42*69
$GLGSV,3,3,09,77,08,199,*55
$GAGSV,4,1,13,12,67,279,,31,40,189,20,29,15,086,38,25,18,319,*6A
$GAGSV,4,2,13,11,17,253,,18,21,116,,33,49,052,48,16,38,304,*6F
$GAGSV,4,3,13,10,43,261,22,24,55,271,,26,03,065,21,07,07,036,40*6A
$GAGSV,4,4,13,19,07,130,33*57
$GBGSV,3,1,11,30,71,324,23,13,15,037,40,05,14,110,44,41,37,069,46*62
$GBGSV,3,2,11,29,20,287,,32,37,142,47,27,46,082,47,08,03,032,*6B
$GBGSV,3,3,11,28,05,094,39,33,06,029,33,20,01,184,*50
$GPGGA,161103.00,4326.7360788,N,00133.0695258,W,1,17,1.7,46.9332,M,50.7943,M,,*4D
$GPGSA,A,3,23,27,32,,,,,,,,,,2.1,1.7,1.1*32
$GPGSA,A,3,65,71,72,87,,,,,,,,,2.1,1.7,1.1*38
$GPGSA,A,3,07,19,29,33,,,,,,,,,2.1,1.7,1.1*33
$GPGSA,A,3,05,13,27,32,33,41,,,,,,,2.1,1.7,1.1*31
$GPGST,161103.00,3.995,7.068,1.513,78.482,2.047,6.933,4.413*67
$GPGGA,161104.00,4326.7367238,N,00133.0697780,W,1,17,1.7,46.9542,M,50.7943,M,,*40
$GPGSA,A,3,23,27,32,,,,,,,,,,2.1,1.7,1.1*32
$GPGSA,A,3,65,71,72,87,,,,,,,,,2.1,1.7,1.1*38
$GPGSA,A,3,07,19,29,33,,,,,,,,,2.1,1.7,1.1*33
$GPGSA,A,3,05,13,27,32,33,41,,,,,,,2.1,1.7,1.1*31
$GPGST,161104.00,3.887,7.126,1.525,78.358,2.073,6.987,4.460*60
$GPGGA,161105.00,4326.7374571,N,00133.0700431,W,1,17,1.7,47.1312,M,50.7943,M,,*45
$GPGSA,A,3,23,27,32,,,,,,,,,,2.1,1.7,1.1*32
$GPGSA,A,3,65,71,72,87,,,,,,,,,2.1,1.7,1.1*38
$GPGSA,A,3,07,19,29,33,,,,,,,,,2.1,1.7,1.1*33
$GPGSA,A,3,05,13,27,32,33,41,,,,,,,2.1,1.7,1.1*31
$GPGST,161105.00,18.216,7.071,1.539,78.681,2.050,6.940,4.409*53
$GPGGA,161106.00,4326.7381558,N,00133.0703696,W,1,16,1.8,47.2413,M,50.7943,M,,*40
$GPGSA,A,3,23,27,32,,,,,,,,,,2.1,1.8,1.1*3D
$GPGSA,A,3,65,71,72,87,,,,,,,,,2.1,1.8,1.1*37
$GPGSA,A,3,07,19,29,33,,,,,,,,,2.1,1.8,1.1*3C
$GPGSA,A,3,13,27,32,33,41,,,,,,,,2.1,1.8,1.1*3B
$GPGST,161106.00,3.502,7.066,1.574,78.778,2.068,6.937,4.434*65
$GPGGA,161107.00,4326.7388151,N,00133.0706684,W,1,16,1.8,47.3759,M,50.7943,M,,*4F
$GPGSA,A,3,23,27,32,,,,,,,,,,2.1,1.8,1.1*3D
$GPGSA,A,3,65,71,72,87,,,,,,,,,2.1,1.8,1.1*37
$GPGSA,A,3,07,19,29,33,,,,,,,,,2.1,1.8,1.1*3C
$GPGSA,A,3,13,27,32,33,41,,,,,,,,2.1,1.8,1.1*3B
$GPGST,161107.00,3.587,7.120,1.571,78.690,2.079,6.988,4.437*6F
$GPGSV,3,1,12,08,79,318,23,23,13,040,42,32,16,113,42,16,20,174,*70
$GPGSV,3,2,12,01,30,257,25,10,51,061,46,02,51,276,,27,60,114,46*7E
$GPGSV,3,3,12,14,04,327,,07,03,269,,30,03,300,,03,01,206,*71
$GLGSV,3,1,09,88,58,329,,87,34,063,40,71,14,024,42,81,16,282,*67
$GLGSV,3,2,09,65,27,141,33,78,38,253,23,79,28,316,,72,39,072,45*65
$GLGSV,3,3,09,77,08,199,*55
$GAGSV,4,1,13,12,67,279,,31,40,189,25,29,15,086,42,25,18,319,*62
$GAGSV,4,2,13,11,17,253,,18,21,116,,33,49,052,44,16,38,304,*63
$GAGSV,4,3,13,10,43,261,19,24,55,271,,26,03,065,23,07,07,036,38*6F
$GAGSV,4,4,13,19,07,130,35*51
$GBGSV,3,1,11,30,71,324,26,13,15,037,44,05,14,110,44,41,37,069,50*64
$GBGSV,3,2,11,29,20,287,,32,37,142,49,27,46,082,51,08,03,032,*62
$GBGSV,3,3,11,28,05,094,44,33,06,029,41,20,01,184,*5F
$GPGGA,161108.00,4326.7394955,N,00133.0710152,W,1,17,1.7,47.4523,M,50.7943,M,,*4C
$GPGSA,A,3,23,27,32,,,,,,,,,,2.1,1.7,1.1*32
$GPGSA,A,3,65,71,72,87,,,,,,,,,2.1,1.7,1.1*38
$GPGSA,A,3,07,19,29,33,,,,,,,,,2.1,1.7,1.1*33
$GPGSA,A,3,05,13,27,32,33,41,,,,,,,2.1,1.7,1.1*31
$GPGST,161108.00,4.514,7.086,1.600,78.923,2.078,6.961,4.416*67
$GPGGA,161109.00,4326.7402293,N,00133.0711954,W,1,16,1.8,47.3745,M,50.7943,M,,*40
$GPGSA,A,3,23,27,32,,,,,,,,,,2.2,1.8,1.2*3D
$GPGSA,A,3,65,71,72,87,,,,,,,,,2.2,1.8,1.2*37
$GPGSA,A,3,07,29,33,,,,,,,,,,2.2,1.8,1.2*34
$GPGSA,A,3,05,13,27,32,33,41,,,,,,,2.2,1.8,1.2*3E
$GPGST,161109.00,4.698,7.795,1.649,76.969,2.381,7.604,4.963*6E
$GPGGA,161110.00,4326.7408933,N,00133.0713480,W,1,17,1.7,47.4243,M,50.7943,M,,*4F
$GPGSA,A,3,23,27,32,,,,,,,,,,2.1,1.7,1.1*32
$GPGSA,A,3,65,71,72,87,,,,,,,,,2.1,1.7,1.1*38
$GPGSA,A,3,07,19,29,33,,,,,,,,,2.1,1.7,1.1*33
$GPGSA,A,3,05,13,27,32,33,41,,,,,,,2.1,1.7,1.1*31
$GPGST,161110.00,4.162,7.318,1.581,77.937,2.175,7.164,4.614*6F
$GPGGA,161111.00,4326.7415364,N,00133.0714594,W,1,17,1.7,47.5040,M,50.7943,M,,*49
$GPGSA,A,3,23,27,32,,,,,,,,,,2.1,1.7,1.1*32
$GPGSA,A,3,65,71,72,87,,,,,,,,,2.1,1.7,1.1*38
$GPGSA,A,3,07,19,29,33,,,,,,,,,2.1,1.7,1.1*33
$GPGSA,A,3,05,13,27,32,33,41,,,,,,,2.1,1.7,1.1*31
$GPGST,161111.00,4.275,7.214,1.568,79.028,2.063,7.088,4.499*6A
$GPGGA,161112.00,4326.7422091,N,00133.0715950,W,1,17,1.7,47.5614,M,50.7943,M,,*45
$GPGSA,A,3,23,27,32,,,,,,,,,,2.1,1.7,1.1*32
$GPGSA,A,3,65,71,72,87,,,,,,,,,2.1,1.7,1.1*38
$GPGSA,A,3,07,19,29,33,,,,,,,,,2.1,1.7,1.1*33
$GPGSA,A,3,05,13,27,32,33,41,,,,,,,2.1,1.7,1.1*31
$GPGST,161112.00,4.247,7.210,1.563,78.730,2.082,7.078,4.489*69
$GPGSV,3,1,12,08,79,318,29,23,13,040,42,32,16,113,40,16,20,174,*78
$GPGSV,3,2,12,01,30,257,,10,51,061,48,02,51,276,,27,60,114,43*72
$GPGSV,3,3,12,14,04,327,,07,03,269,,30,03,300,,03,01,206,*71
$GLGSV,3,1,09,88,58,329,,87,34,063,41,71,14,024,39,81,16,282,*6A
$GLGSV,3,2,09,65,27,141,40,78,38,252,24,79,28,316,,72,39,072,43*61
$GLGSV,3,3,09,77,08,199,*55
$GAGSV,4,1,13,12,67,280,,31,40,189,21,29,15,086,37,25,18,319,*62
$GAGSV,4,2,13,11,17,253,,18,21,116,,33,49,052,45,16,38,304,*62
$GAGSV,4,3,13,10,43,261,22,24,55,271,,26,03,065,29,07,07,036,37*62
$GAGSV,4,4,13,19,07,130,32*56
$GBGSV,3,1,11,30,71,324,,13,15,037,44,05,14,110,40,41,37,068,49*6D
$GBGSV,3,2,11,29,20,287,,32,37,142,44,27,46,082,49,08,03,032,21*65
$GBGSV,3,3,11,28,05,094,42,33,06,029,41,20,01,184,*59
$GPGGA,161113.00,4326.7428628,N,00133.0716400,W,1,17,1.7,47.3981,M,50.7943,M,,*44
$GPGSA,A,3,23,27,32,,,,,,,,,,2.1,1.7,1.1*32
$GPGSA,A,3,65,71,72,87,,,,,,,,,2.1,1.7,1.1*38
$GPGSA,A,3,07,19,29,33,,,,,,,,,2.1,1.7,1.1*33
$GPGSA,A,3,05,13,27,32,33,41,,,,,,,2.1,1.7,1.1*31
$GPGST,161113.00,4.087,7.073,1.529,78.483,2.059,6.938,4.420*6D
$GPGGA,161114.00,4326.7434963,N,00133.0717794,W,1,17,1.7,47.4717,M,50.7943,M,,*47
$GPGSA,A,3,23,27,32,,,,,,,,,,2.1,1.7,1.1*32
$GPGSA,A,3,65,71,72,87,,,,,,,,,2.1,1.7,1.1*38
$GPGSA,A,3,07,19,29,33,,,,,,,,,2.1,1.7,1.1*33
$GPGSA,A,3,05,13,27,32,33,41,,,,,,,2.1,1.7,1.1*31
$GPGST,161114.00,3.854,8.231,1.682,75.986,2.576,7.996,5.286*61
$GPGGA,161115.00,4326.7442275,N,00133.0721136,W,1,17,1.7,47.5226,M,50.7943,M,,*46
$GPGSA,A,3,23,27,32,,,,,,,,,,2.1,1.7,1.1*32
$GPGSA,A,3,65,71,72,87,,,,,,,,,2.1,1.7,1.1*38
$GPGSA,A,3,07,19,29,33,,,,,,,,,2.1,1.7,1.1*33
$GPGSA,A,3,05,13,27,32,33,41,,,,,,,2.1,1.7,1.1*31
$GPGST,161115.00,3.840,7.221,1.567,78.548,2.101,7.084,4.541*63
$GPGGA,161116.00,4326.7449768,N,00133.0724367,W,1,17,1.7,47.4299,M,50.7943,M,,*41
$GPGSA,A,3,23,27,32,,,,,,,,,,2.1,1.7,1.1*32
$GPGSA,A,3,65,71,72,87,,,,,,,,,2.1,1.7,1.1*38
$GPGSA,A,3,07,19,29,33,,,,,,,,,2.1,1.7,1.1*33
$GPGSA,A,3,05,13,27,32,33,41,,,,,,,2.1,1.7,1.1*31
$GPGST,161116.00,3.920,7.068,1.534,78.607,2.052,6.936,4.425*63
$GPGGA,161117.00,4326.7457364,N,00133.0729034,W,1,17,1.7,47.3481,M,50.7943,M,,*47
$GPGSA,A,3,23,27,32,,,,,,,,,,2.1,1.7,1.1*32
$GPGSA,A,3,65,71,72,87,,,,,,,,,2.1,1.7,1.1*38
$GPGSA,A,3,07,19,29,33,,,,,,,,,2.1,1.7,1.1*33
$GPGSA,A,3,05,13,27,32,33,41,,,,,,,2.1,1.7,1.1*31
$GPGST,161117.00,13.643,7.105,1.566,78.700,2.073,6.974,4.436*55
$GPGSV,3,1,12,08,79,318,26,23,13,040,42,32,16,113,46,16,20,174,24*77
$GPGSV,3,2,12,01,30,257,,10,51,061,47,02,51,276,,27,60,114,48*76
$GPGSV,3,3,12,14,04,327,,07,03,269,,30,03,300,,03,01,206,*71
$GLGSV,3,1,09,88,58,329,,87,34,063,41,71,14,024,38,81,16,282,*6B
$GLGSV,3,2,09,65,27,141,38,78,38,252,22,79,28,316,,72,39,072,45*6E
$GLGSV,3,3,09,77,07,199,*5A
$GAGSV,4,1,13,12,67,280,,31,39,189,19,29,15,086,37,25,18,319,*67
$GAGSV,4,2,13,11,17,253,,18,21,116,,33,49,052,46,16,38,304,*61
$GAGSV,4,3,13,10,43,261,21,24,55,271,,26,03,065,26,07,07,036,42*6C
$GAGSV,4,4,13,19,07,129,34*58
$GBGSV,3,1,11,30,71,324,,13,15,037,42,05,14,110,41,41,37,068,47*64
$GBGSV,3,2,11,29,20,287,,32,37,142,48,27,46,082,49,08,03,032,20*68
$GBGSV,3,3,11,28,05,094,23,33,06,029,43,20,01,184,*5C
$GPGGA,161118.00,4326.7465017,N,00133.0733627,W,1,16,1.8,47.4225,M,50.7943,M,,*40
$GPGSA,A,3,23,27,32,,,,,,,,,,2.1,1.8,1.1*3D
$GPGSA,A,3,65,71,72,87,,,,,,,,,2.1,1.8,1.1*37
$GPGSA,A,3,07,19,29,33,,,,,,,,,2.1,1.8,1.1*3C
$GPGSA,A,3,13,27,32,33,41,,,,,,,,2.1,1.8,1.1*3B
$GPGST,161118.00,3.742,7.063,1.581,78.760,2.073,6.934,4.414*61
$GPGGA,161119.00,4326.7472683,N,00133.0737569,W,1,16,1.8,47.4224,M,50.7943,M,,*40
$GPGSA,A,3,23,27,32,,,,,,,,,,2.1,1.8,1.1*3D
$GPGSA,A,3,65,71,72,87,,,,,,,,,2.1,1.8,1.1*37
$GPGSA,A,3,07,19,29,33,,,,,,,,,2.1,1.8,1.1*3C
$GPGSA,A,3,13,27,32,33,41,,,,,,,,2.1,1.8,1.1*3B
$GPGST,161119.00,3.742,7.083,1.566,78.745,2.066,6.954,4.413*65
$GPGGA,161120.00,4326.7479370,N,00133.0741843,W,1,17,1.7,47.4595,M,50.7943,M,,*4F
$GPGSA,A,3,23,27,32,,,,,,,,,,2.1,1.7,1.1*32
$GPGSA,A,3,65,71,72,87,,,,,,,,,2.1,1.7,1.1*38
$GPGSA,A,3,07,19,29,33,,,,,,,,,2.1,1.7,1.1*33
$GPGSA,A,3,05,13,27,32,33,41,,,,,,,2.1,1.7,1.1*31
$GPGST,161120.00,3.738,7.056,1.522,78.384,2.060,6.919,4.420*6C
$GPGGA,161121.00,4326.7485348,N,00133.0745444,W,1,17,1.7,47.6125,M,50.7942,M,,*45
$GPGSA,A,3,23,27,32,,,,,,,,,,2.1,1.7,1.1*32
$GPGSA,A,3,65,71,72,87,,,,,,,,,2.1,1.7,1.1*38
$GPGSA,A,3,07,19,29,33,,,,,,,,,2.1,1.7,1.1*33
$GPGSA,A,3,05,13,27,32,33,41,,,,,,,2.1,1.7,1.1*31
$GPGST,161121.00,3.638,7.080,1.533,78.461,2.064,6.944,4.426*61
$GPGGA,161122.00,4326.7490925,N,00133.0747380,W,1,17,1.7,47.6796,M,50.7942,M,,*40
$GPGSA,A,3,23,27,32,,,,,,,,,,2.1,1.7,1.1*32
$GPGSA,A,3,65,71,72,87,,,,,,,,,2.1,1.7,1.1*38
$GPGSA,A,3,07,19,29,33,,,,,,,,,2.1,1.7,1.1*33
$GPGSA,A,3,05,13,27,32,33,41,,,,,,,2.1,1.7,1.1*31
$GPGST,161122.00,3.617,6.952,1.523,78.269,2.054,6.813,4.341*61
$GPGSV,3,1,12,08,79,318,,23,13,040,44,32,16,113,43,16,20,174,23*77
$GPGSV,3,2,12,01,30,257,23,10,51,061,48,02,51,276,,27,60,114,43*73
$GPGSV,3,3,12,14,04,327,,07,03,269,,30,03,300,,03,01,206,*71
$GLGSV,3,1,09,88,58,329,,87,34,063,43,71,14,024,40,81,16,282,*66
$GLGSV,3,2,09,65,27,141,39,78,38,252,,79,28,316,,72,39,072,45*6F
$GLGSV,3,3,09,77,07,199,*5A
$GAGSV,4,1,13,12,67,280,,31,39,189,20,29,15,086,41,25,18,319,*6C
$GAGSV,4,2,13,11,17,253,,18,21,116,,33,49,052,46,16,38,304,*61
$GAGSV,4,3,13,10,43,261,24,24,55,271,,26,03,065,31,07,07,036,41*6C
$GAGSV,4,4,13,19,07,129,33*5F
$GBGSV,3,1,11,30,71,324,,13,15,037,42,05,14,110,40,41,37,068,48*6A
$GBGSV,3,2,11,29,20,287,,32,37,141,47,27,46,082,51,08,03,032,25*68
$GBGSV,3,3,11,28,05,094,34,33,06,029,41,20,01,184,*58
$GPGGA,161123.00,4326.7496062,N,00133.0748873,W,1,17,1.7,47.7322,M,50.7942,M,,*4F
$GPGSA,A,3,23,27,32,,,,,,,,,,2.1,1.7,1.1*32
$GPGSA,A,3,65,71,72,87,,,,,,,,,2.1,1.7,1.1*38
$GPGSA,A,3,07,19,29,33,,,,,,,,,2.1,1.7,1.1*33
$GPGSA,A,3,05,13,27,32,33,41,,,,,,,2.1,1.7,1.1*31
$GPGST,161123.00,3.587,6.962,1.515,78.060,2.067,6.819,4.362*6C
$GPGGA,161124.00,4326.7499063,N,00133.0749702,W,1,17,1.7,47.4651,M,50.7942,M,,*4C
$GPGSA,A,3,23,27,32,,,,,,,,,,2.1,1.7,1.1*32
$GPGSA,A,3,65,71,72,87,,,,,,,,,2.1,1.7,1.1*38
$GPGSA,A,3,07,19,29,33,,,,,,,,,2.1,1.7,1.1*33
$GPGSA,A,3,05,13,27,32,33,41,,,,,,,2.1,1.7,1.1*31
$GPGST,161124.00,3.497,6.957,1.517,78.175,2.059,6.817,4.353*6B
$GPGGA,161125.00,4326.7499306,N,00133.0749757,W,1,17,1.7,47.4364,M,50.7942,M,,*4E
$GPGSA,A,3,23,27,32,,,,,,,,,,2.1,1.7,1.1*32
$GPGSA,A,3,65,71,72,87,,,,,,,,,2.1,1.7,1.1*38
$GPGSA,A,3,07,19,29,33,,,,,,,,,2.1,1.7,1.1*33
$GPGSA,A,3,05,13,27,32,33,41,,,,,,,2.1,1.7,1.1*31
$GPGST,161125.00,3.659,6.914,1.523,78.146,2.059,6.774,4.331*64
$GPGGA,161126.00,4326.7499528,N,00133.0749895,W,1,17,1.7,47.4039,M,50.7942,M,,*4D
$GPGSA,A,3,23,27,32,,,,,,,,,,2.1,1.7,1.1*32
$GPGSA,A,3,65,71,72,87,,,,,,,,,2.1,1.7,1.1*38
$GPGSA,A,3,07,19,29,33,,,,,,,,,2.1,1.7,1.1*33
$GPGSA,A,3,05,13,27,32,33,41,,,,,,,2.1,1.7,1.1*31
$GPGST,161126.00,3.774,6.912,1.513,78.118,2.053,6.771,4.332*6B
$GPGGA,161127.00,4326.7499565,N,00133.0750368,W,1,17,1.7,47.4195,M,50.7942,M,,*43
$GPGSA,A,3,23,27,32,,,,,,,,,,2.1,1.7,1.1*32
$GPGSA,A,3,65,71,72,87,,,,,,,,,2.1,1.7,1.1*38
$GPGSA,A,3,07,19,29,33,,,,,,,,,2.1,1.7,1.1*33
$GPGSA,A,3,05,13,27,32,33,41,,,,,,,2.1,1.7,1.1*31
$GPGST,161127.00,3.759,6.905,1.508,78.097,2.051,6.764,4.329*63
$GPGSV,3,1,12,08,79,318,,23,13,040,41,32,16,113,48,16,19,174,*72
$GPGSV,3,2,12,01,30,257,28,10,51,061,47,02,51,276,,27,60,114,43*77
$GPGSV,3,3,12,14,04,327,,07,03,269,,30,03,300,,03,01,206,*71
$GLGSV,3,1,09,88,58,329,,87,34,063,43,71,13,024,47,81,16,282,*66
$GLGSV,3,2,09,65,27,141,42,78,38,252,,79,28,316,,72,39,072,46*60
$GLGSV,3,3,09,77,07,199,*5A
$GAGSV,4,1,13,12,67,280,,31,39,189,,29,15,086,43,25,18,319,*6C
$GAGSV,4,2,13,11,17,253,,18,21,116,,33,49,052,46,16,38,304,*61
$GAGSV,4,3,13,10,43,261,,24,55,271,,26,03,065,36,07,07,036,44*68
$GAGSV,4,4,13,19,07,129,35*59
$GBGSV,3,1,11,30,71,324,21,13,14,037,46,05,14,110,38,41,37,068,48*63
$GBGSV,3,2,11,29,20,287,,32,37,141,45,27,46,082,52,08,03,032,25*69
$GBGSV,3,3,11,28,05,094,39,33,06,029,46,20,01,184,*52
$GPGGA,161128.00,4326.7499639,N,00133.0750943,W,1,17,1.7,47.4128,M,50.7942,M,,*43
$GPGSA,A,3,23,27,32,,,,,,,,,,2.1,1.7,1.1*32
$GPGSA,A,3,65,71,72,87,,,,,,,,,2.1,1.7,1.1*38
$GPGSA,A,3,07,19,29,33,,,,,,,,,2.1,1.7,1.1*33
$GPGSA,A,3,05,13,27,32,33,41,,,,,,,2.1,1.7,1.1*31
$GPGST,161128.00,3.774,6.894,1.511,78.119,2.050,6.754,4.324*6A
$GPGGA,161129.00,4326.7499756,N,00133.0751453,W,1,17,1.7,47.4071,M,50.7942,M,,*4A
$GPGSA,A,3,23,27,32,,,,,,,,,,2.1,1.7,1.1*32
$GPGSA,A,3,65,71,72,87,,,,,,,,,2.1,1.7,1.1*38
$GPGSA,A,3,07,19,29,33,,,,,,,,,2.1,1.7,1.1*33
$GPGSA,A,3,05,13,27,32,33,41,,,,,,,2.1,1.7,1.1*31
$GPGST,161129.00,3.784,6.899,1.509,78.088,2.051,6.758,4.326*66
$GPGGA,161130.00,4326.7499861,N,00133.0751953,W,1,17,1.7,47.4079,M,50.7942,M,,*4C
$GPGSA,A,3,23,27,32,,,,,,,,,,2.1,1.7,1.1*32
$GPGSA,A,3,65,71,72,87,,,,,,,,,2.1,1.7,1.1*38
$GPGSA,A,3,07,19,29,33,,,,,,,,,2.1,1.7,1.1*33
$GPGSA,A,3,05,13,27,32,33,41,,,,,,,2.1,1.7,1.1*31
$GPGST,161130.00,3.758,6.907,1.510,78.091,2.053,6.765,4.331*63
